[
  {
    "lat":52.5107536,
    "lng":13.3793077,
    "number": "24",
    "name":"Voss Stra\u00dfe, in Berlin",
    "street_name":"Voss Stra\u00dfe",
    "postal_code":"10117",
    "city":"Berlin"
  },
  {
    "lat":52.5139771,
    "lng":13.3901358,
    "number":"61",
    "name":"BE.emobil J\u00e4gerstra\u00dfe",
    "street_name":"J\u00e4gerstra\u00dfe",
    "postal_code":"10117",
    "city":"Berlin"
  },
  {
    "lat":52.5155563,
    "lng":13.3897219,
    "number":"28",
    "name":"28 Behrensstra\u00dfe Berlin",
    "street_name":"Behrensstra\u00dfe",
    "postal_code":"10117",
    "city":"Berlin"
  },
  {
    "lat":52.5186272,
    "lng":13.3877831,
    "number":"115",
    "name":"Be emobil Dorotheenstr",
    "street_name":"Dorotheenstra\u00dfe",
    "postal_code":"10117",
    "city":"Berlin"
  },
  {
    "lat":52.5122032,
    "lng":13.3935966,
    "number":"33",
    "name":"Allego Be-emobil",
    "street_name":"Markgrafenstra\u00dfe",
    "postal_code":"10117",
    "city":"Berlin"
  },
  {
    "lat":52.5130272,
    "lng":13.389802,
    "number":"34",
    "name":"Allego Be-emobil",
    "street_name":"Taubenstra\u00dfe",
    "postal_code":"10117",
    "city":"Berlin"
  },
  {
    "lat":52.5103149,
    "lng":13.3887529,
    "number":"106",
    "name":"Tiefgarage NH Hotel",
    "street_name":"Leipziger Stra\u00dfe",
    "postal_code":"10117",
    "city":"Berlin"
  },
  {
    "lat":52.5096512,
    "lng":13.3630352,
    "number":"15",
    "name":"EnBW - Landesvertretung Baden-W\u00fcrttemberg",
    "street_name":"Tiergartenstra\u00dfe",
    "postal_code":"10785",
    "city":"Berlin"
  },
  {
    "lat":52.5112152,
    "lng":13.3899469,
    "number":"191",
    "name":"Vattenfall - Friedrichstra\u00dfe",
    "street_name":"Friedrichstra\u00dfe",
    "postal_code":"10117",
    "city":"Berlin"
  },
  {
    "lat":52.5102768,
    "lng":13.4088888,
    "number":"76",
    "name":"76 Alte Jakobstra\u00dfe Berlin",
    "street_name":"Alte Jakobstra\u00dfe",
    "postal_code":"10179",
    "city":"Berlin"
  },
  {
    "lat":52.5088501,
    "lng":13.4026566,
    "number":"1",
    "name":"Allego Be-emobil",
    "street_name":"Beuthstra\u00dfe",
    "postal_code":"10117",
    "city":"Berlin"
  },
  {
    "lat":52.5113335,
    "lng":13.4021626,
    "number" : "2-5",
    "name":"Seydelstra\u00dfe",
    "street_name":"Seydelstra\u00dfe 2-5",
    "postal_code":"10117",
    "city":"Berlin"
  },
  {
    "lat":52.5160179,
    "lng":13.3802433,
    "number": "77",
    "name":"New Motion (DE) - Unter den Linden 77 - Berlin",
    "street_name":"Unter den Linden",
    "postal_code":"10117",
    "city":"Berlin"
  },
  {
    "lat":52.5123215,
    "lng":13.4189157,
    "number":"22",
    "name":"Allego Be-emobil",
    "street_name":"Rungestra\u00dfe",
    "postal_code":"10179",
    "city":"Berlin"
  },
  {
    "lat":52.5123596,
    "lng":13.3776731,
    "number":"10",
    "name":"Landesvertretung  Niedersachsen",
    "street_name":"In den Ministerg\u00e4rten",
    "postal_code":"10117",
    "city":"Berlin"
  },
  {
    "lat":52.5091438,
    "lng":13.3920517,
    "number":"29",
    "name":"Parkhaus im Hilton von Auto Herbst im Hilton",
    "street_name":"Charlottenstra\u00dfe",
    "postal_code":"10117",
    "city":"Berlin"
  },
  {
    "lat":52.5094681,
    "lng":13.3895426,
    "number":"72",
    "name":"72 Krausenstra\u00dfe Berlin",
    "street_name":"Krausenstra\u00dfe",
    "postal_code":"10117",
    "city":"Berlin"
  },
  {
    "lat":52.5187454,
    "lng":13.4091358,
    "number":"1",
    "name":"1 J\u00fcdenstrasse Berlin",
    "street_name":"J\u00fcdenstrasse",
    "postal_code":"10178",
    "city":"Berlin"
  },
  {
    "lat":52.5104294,
    "lng":13.3738441,
    "number":"3",
    "name":"3 Bellevuestr. Berlin",
    "street_name":"Bellevuestr.",
    "postal_code":"10785",
    "city":"Berlin"
  },
  {
    "lat":52.5116119,
    "lng":13.3919315,
    "number":"29",
    "name":"Hilton Berlin Parking",
    "street_name":"Charlottenstra\u00dfe",
    "postal_code":"10117",
    "city":"Berlin"
  },
  {
    "lat":52.5093803,
    "lng":13.39118,
    "number":"9",
    "name":"LS14 - Krausenstr",
    "street_name":"Krausenstr",
    "postal_code":"17178",
    "city":"Berlin"
  },
  {
    "lat":52.5099983,
    "lng":13.3755274,
    "number":"3",
    "name":"Allego - Bellevuestrasse - Berlin",
    "street_name":"Potsdamer Platz",
    "postal_code":"10785",
    "city":"Berlin"
  },
  {
    "lat":52.511261,
    "lng":13.3967533,
    "number":"28",
    "name":"Allego - Be-emobil",
    "street_name":"Jerusalemer Stra\u00dfe",
    "postal_code":"10117",
    "city":"Berlin"
  },
  {
    "lat":52.5142326,
    "lng":13.3955173,
    "number":"49",
    "name":"Allego Be-emobil",
    "street_name":"J\u00e4gerstra\u00dfe",
    "postal_code":"10117",
    "city":"Berlin"
  },
  {
    "lat":52.5101891,
    "lng":13.403163,
    "number":"5",
    "name":"Seydelstra\u00dfe 5",
    "street_name":"Seydelstra\u00dfe",
    "postal_code":"10117",
    "city":"Berlin"
  },
  {
    "lat":52.5133095,
    "lng":13.4156256,
    "number":"3",
    "name":"Be emobil Ladestation - Am K\u00f6llnischen Park",
    "street_name":"Am K\u00f6llnischen Park",
    "postal_code":"10179",
    "city":"Berlin"
  },
  {
    "lat":52.5129318,
    "lng":13.3901262,
    "number":"14",
    "name":"Rewe Markt in der Taubenstrasse Berlin (Private)",
    "street_name":"Taubenstra\u00dfe",
    "postal_code":"10117",
    "city":"Berlin"
  },
  {
    "lat":52.5103073,
    "lng":13.3753128,
    "number":"3",
    "name":"The Ritz-Carlton, Berlin (Tesla)",
    "street_name":"Potsdamer Platz",
    "postal_code":"10785",
    "city":"Berlin"
  },
  {
    "lat":52.5101051,
    "lng":13.378046,
    "number":"19",
    "name":"Vattenfall Leipziger Platz",
    "street_name":"Leipziger Platz",
    "postal_code":"10117",
    "city":"Berlin"
  },
  {
    "lat":52.5158043,
    "lng":13.4104624,
    "number":"1",
    "name":"Innogy - Neue J\u00fcdenstra\u00dfe Berlin",
    "street_name":"Neue J\u00fcdenstra\u00dfe",
    "postal_code":"10117",
    "city":"Berlin"
  },
  {
    "lat":52.5176811,
    "lng":13.4008408,
    "number":"5",
    "name":"eRoaming Showcase Ebee ICNC",
    "street_name":"Schlo\u00dfplatz",
    "postal_code":"10178",
    "city":"Berlin"
  },
  {
    "lat":52.509449,
    "lng":13.3941813,
    "number":"28",
    "name":"Markgrafenstra\u00dfe 28",
    "street_name":"Markgrafenstra\u00dfe",
    "postal_code":"10117",
    "city":"Berlin"
  },
  {
    "lat":52.5103378,
    "lng":13.388092,
    "number":"106",
    "name":"Parkeergarage Hotel NH Collection Berlin Mitte am Checkpoint Charlie",
    "street_name":"Leipziger str.",
    "postal_code":"10117",
    "city":"Berlin"
  },
  {
    "lat":52.5191994,
    "lng":13.4027996,
    "number":"3",
    "name":"Radisson Blu Hotel Berlin",
    "street_name":"Karl-Liebknecht-Stra\u00dfe",
    "postal_code":"10178",
    "city":"Berlin"
  },
  {
    "lat":52.5102501,
    "lng":13.4323559,
    "number":"1",
    "name":"stadtraum.com (Stadtraum\/Parkraum staff only)",
    "street_name":"Am Ostbahnhof",
    "postal_code":"10243",
    "city":"Berlin"
  },
  {
    "lat":52.5237198,
    "lng":13.3805809,
    "number":"6",
    "name":"Innogy - Berlin - 6 Schumannstr. ",
    "street_name":"Schumannstr.",
    "postal_code":"10117",
    "city":"Berlin"
  },
  {
    "lat":52.51614,
    "lng":13.4799891,
    "number":"1",
    "name":"1 Normannenstr. Berlin",
    "street_name":"Normannenstr.",
    "postal_code":"10367",
    "city":"Berlin"
  },
  {
    "lat":52.5244141,
    "lng":13.486392,
    "number":"3",
    "name":"Squash House Berlin (Tesla)",
    "street_name":"Vulkanstra\u00dfe",
    "postal_code":"10367",
    "city":"Berlin"
  },
  {
    "lat":52.5100288,
    "lng":13.4296274,
    "number":"2",
    "name":"Ibis Ostbahnhof - Berlin",
    "street_name":"An der Schillingbr\u00fccke",
    "postal_code":"10243",
    "city":"Berlin"
  },
  {
    "lat":52.5139313,
    "lng":13.4770098,
    "number":"113",
    "name":"New Motion - Frankfurter Allee",
    "street_name":"Frankfurter Allee",
    "postal_code":"10365",
    "city":"Berlin"
  },
  {
    "lat":52.5199013,
    "lng":13.4147949,
    "number":"20",
    "name":"20 Grunerstra\u00dfe Berlin",
    "street_name":"Grunerstra\u00dfe",
    "postal_code":"10179",
    "city":"Berlin"
  },
  {
    "lat":52.5093498,
    "lng":13.4323826,
    "number":"36",
    "name":"GP JOULE Connect GmbH & Co. KG -  Stralauer Platz 36 - Berlin",
    "street_name":"Stralauer Platz",
    "postal_code":"10243",
    "city":"Berlin"
  },
  {
    "lat":52.5116653,
    "lng":13.4975004,
    "number":"248",
    "name":"248 Frankfurter Allee Berlin",
    "street_name":"Frankfurter Allee",
    "postal_code":"10365",
    "city":"Berlin"
  },
  {
    "lat":52.5241661,
    "lng":13.4213886,
    "number":"4",
    "name":"4 Mollstra\u00dfe Berlin",
    "street_name":"Mollstra\u00dfe",
    "postal_code":"10178",
    "city":"Berlin"
  },
  {
    "lat":52.5145187,
    "lng":13.4628296,
    "number":"1A",
    "name":"Mainzer Stra\u00dfe - Berlin",
    "street_name":"Mainzer Stra\u00dfe",
    "postal_code":"10247",
    "city":"Berlin"
  },
  {
    "lat":52.5243607,
    "lng":13.4117069,
    "number":"29",
    "name":"Karl-Liebknecht-Strasse in Berlin",
    "street_name":"Karl-Liebknecht-Stra\u00dfe",
    "postal_code":"10178",
    "city":"Berlin"
  },
  {
    "lat":52.5222168,
    "lng":13.4070978,
    "number":"13",
    "name":"Kaufland - Karl-Liebknecht-Stra\u00dfe",
    "street_name":"Karl-Liebknecht-Stra\u00dfe",
    "postal_code":"10178",
    "city":"Berlin"
  },
  {
    "lat":52.5227661,
    "lng":13.4138842,
    "number":"4",
    "name":"ParkInn Hotel Allego fastchager Alexanderstra\u00dfe 4 Berlin",
    "street_name":"Alexanderstra\u00dfe",
    "postal_code":"10178",
    "city":"Berlin"
  },
  {
    "lat":52.5113754,
    "lng":13.4492416,
    "number":"42",
    "name":"Upstalsboom Hotel Friedrichshain",
    "street_name":"Gubener Stra\u00dfe",
    "postal_code":"10243",
    "city":"Berlin"
  },
  {
    "lat":52.5122452,
    "lng":13.3826818,
    "number":"2",
    "name":"Lautlos - An der Kolonnade",
    "street_name":"An der Kolonnade",
    "postal_code":"10117",
    "city":"Berlin"
  },
  {
    "lat":52.5081902,
    "lng":13.4144039,
    "number":"13",
    "name":"Allego BE Mobil - Heinrich-Heine-Stra\u00dfe",
    "street_name":"Heinrich-Heine-Stra\u00dfe",
    "postal_code":"10179",
    "city":"Berlin"
  },
  {
    "lat":52.5081406,
    "lng":13.5084476,
    "number":"63",
    "name":"Ubitricity Laterne",
    "street_name":"Einbecker Stra\u00dfe",
    "postal_code":"10315",
    "city":"Berlin"
  },
  {
    "lat":52.5195312,
    "lng":13.3893147,
    "number":"96",
    "name":"NH Collection Berlin Friedrichstrasse (Tesla)",
    "street_name":"Friedrichstra\u00dfe",
    "postal_code":"10117",
    "city":"Berlin"
  },
  {
    "lat":52.5199318,
    "lng":13.3802309,
    "number":"31",
    "name":"31 Luisenstrasse Berlin",
    "street_name":"Luisenstr.",
    "postal_code":"10117",
    "city":"Berlin"
  },
  {
    "lat":52.5229073,
    "lng":13.380991,
    "number":"32",
    "name":"Berlin - 32 Reinhardtstra\u00dfe",
    "street_name":"Reinhardtstra\u00dfe",
    "postal_code":"10117",
    "city":"Berlin"
  },
  {
    "lat":52.5210991,
    "lng":13.4017143,
    "number":"3",
    "name":"Parkstrom - Anna-Louisa-Karsch-Stra\u00dfe, 3 - Berlin",
    "street_name":"Anna-Louisa-Karsch-Stra\u00dfe",
    "postal_code":"10178",
    "city":"Berlin"
  },
  {
    "lat":52.5070038,
    "lng":13.4055834,
    "number":"55",
    "name":"Be-emobil - Stallschreiberstrasse",
    "street_name":"Stallschreiberstrasse",
    "postal_code":"10969",
    "city":"Berlin"
  },
  {
    "lat":52.5110664,
    "lng":13.4292908,
    "number":"37",
    "name":"New Motion (DE) -  Holzmarktstra\u00dfe 37 - Berlin",
    "street_name":"Holzmarktstra\u00dfe",
    "postal_code":"10243",
    "city":"Berlin"
  },
  {
    "lat":52.5131264,
    "lng":13.4480886,
    "number":"4",
    "name":"Allego Be-emobil - Gr\u00fcnberger Stra\u00dfe",
    "street_name":"Gr\u00fcnberger Stra\u00dfe",
    "postal_code":"10243",
    "city":"Berlin"
  },
  {
    "lat":52.5060806,
    "lng":13.4465685,
    "number":"11",
    "name":"East Side Mall",
    "street_name":"Tamara-Danz-Stra\u00dfe",
    "postal_code":"10243",
    "city":"Berlin"
  },
  {
    "lat":52.5218124,
    "lng":13.4543648,
    "number":"23",
    "name":"Be-emobil - Ebertystra\u00dfe - Berlin",
    "street_name":"Ebertystra\u00dfe",
    "postal_code":"10249",
    "city":"Berlin"
  },
  {
    "lat":52.5102425,
    "lng":13.4903631,
    "number":"4a",
    "name":"Comfortcharge GmbH - 4 Buchberger Str - Berlin",
    "street_name":"Buchberger Stra\u00dfe",
    "postal_code":"10365",
    "city":"Berlin"
  },
  {
    "lat":52.51968,
    "lng":13.3853226,
    "number":"9X",
    "name":"Be emobil Neust\u00e4dtische Kirchstrasse",
    "street_name":"Neust\u00e4dtische Kirchstra\u00dfe",
    "postal_code":"10117",
    "city":"Berlin"
  },
  {
    "lat":52.5238228,
    "lng":13.4145346,
    "number":"2",
    "name":"New Motion - Q-Park Tiefgarage - Alexandrarstrasse",
    "street_name":"Alexanderstra\u00dfe",
    "postal_code":"10178",
    "city":"Berlin"
  },
  {
    "lat":52.5192299,
    "lng":13.3904886,
    "number":"4",
    "name":"4 Planckstr. Berlin",
    "street_name":"Planckstr.",
    "postal_code":"10117",
    "city":"Berlin"
  },
  {
    "lat":52.5097122,
    "lng":13.4234457,
    "number":"3",
    "name":"Wilhelmine-Gemberg-Weg",
    "street_name":"Wilhelmine-Gemberg-Weg",
    "postal_code":"10179",
    "city":"Berlin"
  },
  {
    "lat":52.5204163,
    "lng":13.4380293,
    "number":"83",
    "name":"Allego - Friedenstra\u00dfe - Berlin",
    "street_name":"Friedenstra\u00dfe",
    "postal_code":"10249",
    "city":"Berlin"
  },
  {
    "lat":52.5121269,
    "lng":13.4856644,
    "number":"172",
    "name":"Frankfurter Allee 172",
    "street_name":"Frankfurter Allee",
    "postal_code":"10365",
    "city":"Berlin"
  },
  {
    "lat":52.508007,
    "lng":13.4494295,
    "number":"107",
    "name":"Allego Be-emobil",
    "street_name":"Marchlewskistra\u00dfe",
    "postal_code":"10243",
    "city":"Berlin"
  },
  {
    "lat":52.523056,
    "lng":13.4402046,
    "number":"3",
    "name":"Allego (DE) - 3 Matthiasstr. - Berlin",
    "street_name":"Matthiasstr.",
    "postal_code":"10249",
    "city":"Berlin"
  },
  {
    "lat":52.5072556,
    "lng":13.4672012,
    "number":"55",
    "name":"W\u00fchlischstrasse 54, in Berlin",
    "street_name":"W\u00fchlischstra\u00dfe",
    "postal_code":"10245",
    "city":"Berlin"
  },
  {
    "lat":52.5196762,
    "lng":13.3886852,
    "number":"148-149",
    "name":"NH Collection Hotel",
    "street_name":"Friedrichstra\u00dfe",
    "postal_code":"10117",
    "city":"Berlin"
  },
  {
    "lat":52.5210152,
    "lng":13.4040184,
    "number":"2",
    "name":"Be emobil allego - Spandauer Stra\u00dfe Berlin",
    "street_name":"Spandauer Stra\u00dfe",
    "postal_code":"10178",
    "city":"Berlin"
  },
  {
    "lat":52.5224724,
    "lng":13.4513168,
    "number":"26",
    "name":"Stromparkplatz",
    "street_name":"Stra\u00dfmannstra\u00dfe",
    "postal_code":"10249",
    "city":"Berlin"
  }
]
